{
  "region": "Hong Kong",
  "region_code": "HK",
  "api_base_url": "https://www.apple.com/hk-zh",
  "api_language": "zh-HK",
  "stores": [
    {
      "storeNumber": "R409",
      "storeName": "Apple Causeway Bay",
      "storeNameEN": "Apple Causeway Bay",
      "storeNameZH": "銅鑼灣",
      "city": "香港",
      "district": "香港島",
      "address": "銅鑼灣軒尼詩道 500 號希慎廣場",
      "addressEN": "Shop G37-G39, Ground Floor & Shop 101-102, 1/F, Hysan Place, 500 Hennessy Road, Causeway Bay",
      "phoneNumber": "+852 3979 3100",
      "email": "causewaybay@apple.com",
      "latitude": 22.279526,
      "longitude": 114.183666,
      "storeHours": "週一-週日: 10:00 上午-10:00 下午",
      "verified": true,
      "verified_at": "2025-10-06",
      "source": "Apple HK Official API"
    },
    {
      "storeNumber": "R428",
      "storeName": "Apple ifc mall",
      "storeNameEN": "Apple ifc mall",
      "storeNameZH": "國際金融中心商場",
      "city": "香港",
      "district": "香港島",
      "address": "中環金融街 8 號國際金融中心商場",
      "addressEN": "Shop 1005 & 2001, Podium Level 1, IFC Mall, 8 Finance Street, Central",
      "phoneNumber": "+852 3972 1500",
      "email": "ifcmall@apple.com",
      "latitude": 22.28463,
      "longitude": 114.159172,
      "storeHours": "週一-週日: 10:00 上午-9:00 下午",
      "meetupLocation": "請到一樓樓梯右邊的第一張檯取貨。",
      "verified": true,
      "verified_at": "2025-10-06",
      "source": "Apple HK Official API",
      "notes": "香港最大的Apple Store"
    },
    {
      "storeNumber": "R499",
      "storeName": "Apple Canton Road",
      "storeNameEN": "Apple Canton Road",
      "storeNameZH": "尖沙咀廣東道",
      "city": "香港",
      "district": "九龍",
      "address": "尖沙咀廣東道 100 號",
      "addressEN": "100 Canton Road, Tsim Sha Tsui",
      "phoneNumber": "+852 3979 8800",
      "email": "cantonroad@apple.com",
      "latitude": 22.299287,
      "longitude": 114.168796,
      "storeHours": "週一-週日: 10:00 上午-10:00 下午",
      "meetupLocation": "請到地面樓層靠近樓梯的長凳取貨。",
      "verified": true,
      "verified_at": "2025-10-06",
      "source": "Apple HK Official API"
    },
    {
      "storeNumber": "R673",
      "storeName": "Apple apm Hong Kong",
      "storeNameEN": "Apple apm Hong Kong",
      "storeNameZH": "觀塘",
      "city": "香港",
      "district": "九龍",
      "address": "觀塘觀塘道 418 號",
      "addressEN": "418 Kwun Tong Road, Kwun Tong",
      "phoneNumber": "+852 3572 8900",
      "email": "apmhongkong@apple.com",
      "latitude": 22.31198,
      "longitude": 114.224912,
      "storeHours": "週一-週四, 週日: 11:00 上午-9:00 下午; 週五-週六: 11:00 上午-10:00 下午",
      "verified": true,
      "verified_at": "2025-10-06",
      "source": "Apple HK Official API"
    },
    {
      "storeNumber": "R485",
      "storeName": "Apple Festival Walk",
      "storeNameEN": "Apple Festival Walk",
      "storeNameZH": "又一城",
      "city": "香港",
      "district": "九龍",
      "address": "九龍塘達之路 80 號又一城",
      "addressEN": "Shop LG2-26, Festival Walk, 80 Tat Chee Avenue, Kowloon Tong",
      "phoneNumber": "+852 3979 3600",
      "email": "festivalwalk@apple.com",
      "latitude": 22.33719,
      "longitude": 114.17464,
      "storeHours": "週一-週日: 10:00 上午-9:00 下午",
      "verified": true,
      "verified_at": "2025-10-06",
      "source": "Apple HK Official API"
    },
    {
      "storeNumber": "R610",
      "storeName": "Apple New Town Plaza",
      "storeNameEN": "Apple New Town Plaza",
      "storeNameZH": "新城市廣場",
      "city": "香港",
      "district": "新界",
      "address": "沙田沙田正街 18 號新城市廣場 1 期 L4",
      "addressEN": "L4, Phase 1, New Town Plaza, 18 Sha Tin Centre Street, Sha Tin",
      "phoneNumber": "+852 3899 7800",
      "email": "newtownplaza@apple.com",
      "latitude": 22.38185,
      "longitude": 114.18881,
      "storeHours": "週一-週日: 10:00 上午-10:00 下午",
      "meetupLocation": "請到店內中間位置的取貨櫃台取貨。",
      "verified": true,
      "verified_at": "2025-10-06",
      "source": "Apple HK Official API"
    }
  ],
  "total_stores": 6,
  "last_updated": "2025-10-06",
  "api_notes": {
    "pickup_api": "https://www.apple.com/hk-zh/shop/fulfillment-messages",
    "language_param": "zh-HK",
    "currency": "HKD",
    "timezone": "Asia/Hong_Kong",
    "part_number_format": "ZA/A",
    "example_part_number": "MFYP4ZA/A",
    "note": "香港版Part Number使用ZA/A结尾"
  },
  "api_discovery": {
    "date": "2025-10-06",
    "method": "User provided browser API capture",
    "verification": "All 6 stores verified with real API response"
  }
}
